{"type":"session_start","startedAt":"2026-03-24T12:22:53.591Z","sourceReportPath":"/Users/dawei/Desktop/geophoto-globe/data/reports/narrative-backfill-2026-03-24T09-33-58-564Z.jsonl","reportPath":"/Users/dawei/Desktop/geophoto-globe/data/reports/narrative-retry-2026-03-24T12-22-53-591Z.jsonl"}
{"type":"group_result","index":1,"total":28,"processedAt":"2026-03-24T12:22:53.621Z","key":"37.71901941093905:15.116326010818614","photoCount":2,"latitude":37.71901941093905,"longitude":15.116326010818614,"locationLabel":"37.71901941093905, 15.116326010818614","status":"failure","action":"preserved_existing","wasTruncated":false,"rawCharacterCount":0,"error":"fetch failed"}
{"type":"group_result","index":2,"total":28,"processedAt":"2026-03-24T12:22:53.623Z","key":"37.294928941749994:13.593373654895656","photoCount":3,"latitude":37.294928941749994,"longitude":13.593373654895656,"locationLabel":"37.294928941749994, 13.593373654895656","status":"failure","action":"preserved_existing","wasTruncated":false,"rawCharacterCount":0,"error":"fetch failed"}
{"type":"group_result","index":3,"total":28,"processedAt":"2026-03-24T12:22:53.624Z","key":"37.30226356504858:13.472039342975043","photoCount":2,"latitude":37.30226356504858,"longitude":13.472039342975043,"locationLabel":"37.30226356504858, 13.472039342975043","status":"failure","action":"preserved_existing","wasTruncated":false,"rawCharacterCount":0,"error":"fetch failed"}
{"type":"group_result","index":4,"total":28,"processedAt":"2026-03-24T12:22:53.625Z","key":"37.85455395070848:15.292744804816826","photoCount":4,"latitude":37.85455395070848,"longitude":15.292744804816826,"locationLabel":"37.85455395070848, 15.292744804816826","status":"failure","action":"preserved_existing","wasTruncated":false,"rawCharacterCount":0,"error":"fetch failed"}
{"type":"group_result","index":5,"total":28,"processedAt":"2026-03-24T12:22:53.627Z","key":"33.62611576798834:135.9437927241933","photoCount":7,"latitude":33.62611576798834,"longitude":135.9437927241933,"locationLabel":"纪伊胜浦金枪鱼市场","status":"failure","action":"preserved_existing","wasTruncated":false,"rawCharacterCount":0,"error":"fetch failed"}
{"type":"group_result","index":6,"total":28,"processedAt":"2026-03-24T12:22:53.628Z","key":"33.625757475510035:135.95106320459976","photoCount":2,"latitude":33.625757475510035,"longitude":135.95106320459976,"locationLabel":"浦岛酒店","status":"failure","action":"preserved_existing","wasTruncated":false,"rawCharacterCount":0,"error":"fetch failed"}
{"type":"group_result","index":7,"total":28,"processedAt":"2026-03-24T12:22:53.629Z","key":"33.6723652018465:135.89785394498708","photoCount":2,"latitude":33.6723652018465,"longitude":135.89785394498708,"locationLabel":"熊野古道 大门坂","status":"failure","action":"preserved_existing","wasTruncated":false,"rawCharacterCount":0,"error":"fetch failed"}
{"type":"group_result","index":8,"total":28,"processedAt":"2026-03-24T12:22:53.630Z","key":"41.8916414:12.4867296","photoCount":3,"latitude":41.8916414,"longitude":12.4867296,"locationLabel":"古罗马广场","status":"failure","action":"preserved_existing","wasTruncated":false,"rawCharacterCount":0,"error":"fetch failed"}
{"type":"group_result","index":9,"total":28,"processedAt":"2026-03-24T12:22:53.632Z","key":"35.7018928:139.7743684","photoCount":3,"latitude":35.7018928,"longitude":139.7743684,"locationLabel":"秋叶原","status":"failure","action":"preserved_existing","wasTruncated":false,"rawCharacterCount":0,"error":"fetch failed"}
{"type":"group_result","index":10,"total":28,"processedAt":"2026-03-24T12:22:53.634Z","key":"35.65808:139.7017647","photoCount":3,"latitude":35.65808,"longitude":139.7017647,"locationLabel":"涩谷","status":"failure","action":"preserved_existing","wasTruncated":false,"rawCharacterCount":0,"error":"fetch failed"}
{"type":"group_result","index":11,"total":28,"processedAt":"2026-03-24T12:22:53.635Z","key":"35.6708491:139.7649728","photoCount":2,"latitude":35.6708491,"longitude":139.7649728,"locationLabel":"东京银座","status":"failure","action":"preserved_existing","wasTruncated":false,"rawCharacterCount":0,"error":"fetch failed"}
{"type":"group_result","index":12,"total":28,"processedAt":"2026-03-24T12:22:53.636Z","key":"35.6720135:139.7647202","photoCount":2,"latitude":35.6720135,"longitude":139.7647202,"locationLabel":"银座","status":"failure","action":"preserved_existing","wasTruncated":false,"rawCharacterCount":0,"error":"fetch failed"}
{"type":"group_result","index":13,"total":28,"processedAt":"2026-03-24T12:22:53.637Z","key":"48.8601723:2.314497","photoCount":2,"latitude":48.8601723,"longitude":2.314497,"locationLabel":"拿破仑·波拿巴之墓","status":"failure","action":"preserved_existing","wasTruncated":false,"rawCharacterCount":0,"error":"fetch failed"}
{"type":"group_result","index":14,"total":28,"processedAt":"2026-03-24T12:22:53.637Z","key":"44.746586415156536:-0.5483425800706294","photoCount":3,"latitude":44.746586415156536,"longitude":-0.5483425800706294,"locationLabel":"Château Bouscaut","status":"failure","action":"preserved_existing","wasTruncated":false,"rawCharacterCount":0,"error":"fetch failed"}
{"type":"group_result","index":15,"total":28,"processedAt":"2026-03-24T12:22:53.638Z","key":"43.29543266321774:5.374985772971917","photoCount":18,"latitude":43.29543266321774,"longitude":5.374985772971917,"locationLabel":"马赛涂鸦","status":"failure","action":"preserved_existing","wasTruncated":false,"rawCharacterCount":0,"error":"fetch failed"}
{"type":"group_result","index":16,"total":28,"processedAt":"2026-03-24T12:22:53.639Z","key":"44.7329666531947:-0.5815512771081015","photoCount":6,"latitude":44.7329666531947,"longitude":-0.5815512771081015,"locationLabel":"Château Haut-Bailly","status":"failure","action":"preserved_existing","wasTruncated":false,"rawCharacterCount":0,"error":"fetch failed"}
{"type":"group_result","index":17,"total":28,"processedAt":"2026-03-24T12:22:53.640Z","key":"43.2110721288545:5.452404488504275","photoCount":7,"latitude":43.2110721288545,"longitude":5.452404488504275,"locationLabel":"蔚蓝海岸国家公园","status":"failure","action":"preserved_existing","wasTruncated":false,"rawCharacterCount":0,"error":"fetch failed"}
{"type":"group_result","index":18,"total":28,"processedAt":"2026-03-24T12:22:53.641Z","key":"31.196127:121.3161092","photoCount":2,"latitude":31.196127,"longitude":121.3161092,"locationLabel":"虹桥站","status":"failure","action":"preserved_existing","wasTruncated":false,"rawCharacterCount":0,"error":"fetch failed"}
{"type":"group_result","index":19,"total":28,"processedAt":"2026-03-24T12:22:53.642Z","key":"40.111594618980355:113.13248546547784","photoCount":8,"latitude":40.111594618980355,"longitude":113.13248546547784,"locationLabel":"云冈石窟","status":"failure","action":"preserved_existing","wasTruncated":false,"rawCharacterCount":0,"error":"fetch failed"}
{"type":"group_result","index":20,"total":28,"processedAt":"2026-03-24T12:22:53.643Z","key":"40.08016604523079:113.30226385340364","photoCount":4,"latitude":40.08016604523079,"longitude":113.30226385340364,"locationLabel":"永泰门","status":"failure","action":"preserved_existing","wasTruncated":false,"rawCharacterCount":0,"error":"fetch failed"}
{"type":"group_result","index":21,"total":28,"processedAt":"2026-03-24T12:22:53.643Z","key":"40.02391956394006:116.46513562418735","photoCount":6,"latitude":40.02391956394006,"longitude":116.46513562418735,"locationLabel":"来广营","status":"failure","action":"preserved_existing","wasTruncated":false,"rawCharacterCount":0,"error":"fetch failed"}
{"type":"group_result","index":22,"total":28,"processedAt":"2026-03-24T12:22:53.644Z","key":"30.278369205117777:120.16523692371463","photoCount":7,"latitude":30.278369205117777,"longitude":120.16523692371463,"locationLabel":"浙江省博物馆","status":"failure","action":"preserved_existing","wasTruncated":false,"rawCharacterCount":0,"error":"fetch failed"}
{"type":"group_result","index":23,"total":28,"processedAt":"2026-03-24T12:22:53.645Z","key":"29.650287419226398:91.13389622883876","photoCount":5,"latitude":29.650287419226398,"longitude":91.13389622883876,"locationLabel":"大昭寺","status":"failure","action":"preserved_existing","wasTruncated":false,"rawCharacterCount":0,"error":"fetch failed"}
{"type":"group_result","index":24,"total":28,"processedAt":"2026-03-24T12:22:53.647Z","key":"30.006097222222223:93.97819444444444","photoCount":4,"latitude":30.006097222222223,"longitude":93.97819444444444,"locationLabel":"","status":"failure","action":"preserved_existing","wasTruncated":false,"rawCharacterCount":0,"error":"fetch failed"}
{"type":"group_result","index":25,"total":28,"processedAt":"2026-03-24T12:22:53.649Z","key":"29.671457348162367:94.75306700132566","photoCount":1,"latitude":29.671457348162367,"longitude":94.75306700132566,"locationLabel":"鲁朗 东巴才村","status":"failure","action":"preserved_existing","wasTruncated":false,"rawCharacterCount":0,"error":"fetch failed"}
{"type":"group_result","index":26,"total":28,"processedAt":"2026-03-24T12:22:53.651Z","key":"29.573495624241914:94.89104700138522","photoCount":7,"latitude":29.573495624241914,"longitude":94.89104700138522,"locationLabel":"松赞 南迦巴瓦山居","status":"failure","action":"preserved_existing","wasTruncated":false,"rawCharacterCount":0,"error":"fetch failed"}
{"type":"group_result","index":27,"total":28,"processedAt":"2026-03-24T12:22:53.652Z","key":"40.74966111111111:-73.98838055555555","photoCount":1,"latitude":40.74966111111111,"longitude":-73.98838055555555,"locationLabel":"","status":"failure","action":"preserved_existing","wasTruncated":false,"rawCharacterCount":0,"error":"fetch failed"}
{"type":"group_result","index":28,"total":28,"processedAt":"2026-03-24T12:22:53.653Z","key":"39.93966486386962:116.48204204920108","photoCount":1,"latitude":39.93966486386962,"longitude":116.48204204920108,"locationLabel":"朝阳公园","status":"failure","action":"preserved_existing","wasTruncated":false,"rawCharacterCount":0,"error":"fetch failed"}
{"type":"session_end","finishedAt":"2026-03-24T12:22:53.653Z","sourceReportPath":"/Users/dawei/Desktop/geophoto-globe/data/reports/narrative-backfill-2026-03-24T09-33-58-564Z.jsonl","updatedCount":0,"failedCount":117,"skippedCount":0,"truncatedCount":0}
